Id,Time(seconds),Time(text),Latitude,Longitude,FlightMode,Altitude(feet),Altitude(meters),HSpeed(mph),HSpeed(m/s),GpsSpeed(mph),GpsSpeed(m/s),HomeDistance(feet),HomeDistance(meters),HomeLatitude,HomeLongitude,GpsCount,GpsLevel,BatteryPower(%),BatteryVoltage,BatteryVoltageDeviation,BatteryCell1Voltage,BatteryCell2Voltage,BatteryCell3Voltage,BatteryCell4Voltage,VelocityX,VelocityY,VelocityZ,Pitch,Roll,Yaw,Yaw(360),RcAileron,RcElevator,RcGyro,RcRudder,RcThrottle,NonGpsError,GoHomeStatus,AppTip,AppWarning,AppMessage
1,0.7,0m 0.7s,36.500569,126.3373923,P-GPS,0,0,0,0,0,0,0,0,36.50056931,126.337392,15,5,97,16.797,0.023,4.195,4.215,4.192,4.195,0,0,0,0,0.7,-142.9,217.1,1024,1024,1024,1024,1024,,,,,
2,0.8,0m 0.8s,36.5005689,126.3373923,P-GPS,0,0,0,0,0,0,0,0,36.50056931,126.337392,15,5,97,16.797,0.023,4.195,4.215,4.192,4.195,0,0,0,0,0.7,-142.8,217.2,1024,1024,1024,1024,1024,,,,,
3,0.9,0m 0.9s,36.50056891,126.3373923,P-GPS,0,0,0,0,0,0,0,0,36.50056931,126.337392,15,5,97,16.797,0.023,4.195,4.215,4.192,4.195,0,0,0,0.1,0.7,-142.9,217.1,1024,1024,1024,1024,1024,,,,,
4,1,0m 1s,36.50056881,126.3373924,P-GPS,0,0,0,0,0,0,0,0,36.50056931,126.337392,15,5,97,16.797,0.023,4.195,4.215,4.192,4.195,0,0,0,0.1,0.7,-142.8,217.2,1024,1024,1024,1024,1024,,,,,
5,1.1,0m 1.1s,36.50056881,126.3373924,P-GPS,0,0,0,0,0,0,0,0,36.50056931,126.337392,15,5,97,16.797,0.023,4.195,4.215,4.192,4.195,0,0,0,0.1,0.7,-142.8,217.2,1024,1024,1024,1024,1024,,,,,
6,1.2,0m 1.2s,36.50056881,126.3373924,P-GPS,0,0,0,0,0,0,0,0,36.50056931,126.337392,15,5,97,16.797,0.023,4.195,4.215,4.192,4.195,0,0,0,0.1,0.8,-142.8,217.2,1024,1024,1024,1024,1024,,,,,
7,1.3,0m 1.3s,36.50056882,126.3373924,P-GPS,0,0,0,0,0,0,0.3,0.1,36.50056931,126.337392,15,5,97,16.797,0.023,4.195,4.215,4.192,4.195,0,0,0,0.5,0.8,-142.8,217.2,1024,1024,1024,1024,1024,,,,,
8,1.4,0m 1.4s,36.50056872,126.3373925,P-GPS,0,0,0,0,0,0,0,0,36.50056931,126.337392,15,5,97,16.797,0.023,4.195,4.215,4.192,4.195,0,0,0,0.3,0.9,-142.8,217.2,1024,1024,1024,1024,1024,,,,,
9,1.5,0m 1.5s,36.50056872,126.3373925,P-GPS,0,0,0,0,0,0,0,0,36.50056931,126.337392,15,5,97,16.797,0.023,4.195,4.215,4.192,4.195,0,0,0,0.3,0.9,-142.8,217.2,1024,1024,1024,1024,1024,,,,,
10,1.6,0m 1.6s,36.50056872,126.3373925,P-GPS,0,0,0,0,0,0,0,0,36.50056931,126.337392,15,5,97,16.797,0.023,4.195,4.215,4.192,4.195,0,0,0,0.3,0.9,-142.8,217.2,1024,1024,1024,1024,1024,,,,,
11,1.7,0m 1.7s,36.50056873,126.3373925,P-GPS,0,0,0,0,0,0,0.3,0.1,36.50056931,126.337392,15,5,97,16.755,0.025,4.186,4.206,4.181,4.182,0,0,0,0.5,0.9,-142.8,217.2,1024,1024,1024,1024,1024,,,,,
12,1.8,0m 1.8s,36.50056862,126.3373926,P-GPS,0,0,0,0,0,0,0.4,0.1,36.50056931,126.337392,15,5,97,16.755,0.025,4.186,4.206,4.181,4.182,0,0,0,0.3,0.8,-142.9,217.1,1024,1024,1024,1024,1024,,,,,
13,1.9,0m 1.9s,36.50056863,126.3373926,P-GPS,0,0,0,0,0,0,0.3,0.1,36.50056931,126.337392,15,5,97,16.755,0.025,4.186,4.206,4.181,4.182,0,0,0,0.3,0.8,-142.9,217.1,1024,1024,1024,1024,1024,,,,,
14,2,0m 2s,36.50056862,126.3373926,Manual Takeoff,0,0,0,0,0,0,0.4,0.1,36.50056931,126.337392,15,5,97,16.755,0.025,4.186,4.206,4.181,4.182,0,0,0,0.1,0.8,-142.9,217.1,1024,1024,1024,1024,1024,,,,,
15,2.1,0m 2.1s,36.5005686,126.3373926,Manual Takeoff,0,0,0,0,0,0,0.3,0.1,36.50056931,126.337392,15,5,97,16.755,0.025,4.186,4.206,4.181,4.182,0,0,0,0.1,0.8,-142.9,217.1,1024,1024,1024,1024,1024,,,,,
16,2.2,0m 2.2s,36.50056861,126.3373926,Manual Takeoff,0,0,0,0,0,0,0.4,0.1,36.50056931,126.337392,15,5,97,16.755,0.025,4.186,4.206,4.181,4.182,0,0,0,0.1,0.8,-142.9,217.1,1024,1024,1024,1024,1024,,,,,
17,2.3,0m 2.3s,36.50056861,126.3373926,Manual Takeoff,0,0,0,0,0,0,0.4,0.1,36.50056931,126.337392,15,5,97,16.755,0.025,4.186,4.206,4.181,4.182,0,0,0,0.1,0.8,-142.9,217.1,1024,1024,1024,1024,1024,,,,,
18,2.4,0m 2.4s,36.50056862,126.3373927,Manual Takeoff,0,0,0,0,0,0,0.4,0.1,36.50056931,126.337392,15,5,97,16.755,0.025,4.186,4.206,4.181,4.182,0,0,0,0.1,0.8,-142.9,217.1,1024,1024,1024,1024,1024,,,,,
19,2.5,0m 2.5s,36.50056862,126.3373927,Manual Takeoff,0,0,0,0,0,0,0.4,0.1,36.50056931,126.337392,15,5,97,16.755,0.025,4.186,4.206,4.181,4.182,0,0,0,0.1,0.8,-142.9,217.1,1024,1024,1024,1024,1024,,,,,
20,2.6,0m 2.6s,36.50056862,126.3373927,Manual Takeoff,0,0,0,0,0,0,0.4,0.1,36.50056931,126.337392,15,5,97,16.755,0.025,4.186,4.206,4.181,4.182,0,0,0,0.1,0.8,-142.9,217.1,1024,1048,1024,1024,1024,,,,,
21,2.7,0m 2.7s,36.50056863,126.3373927,Manual Takeoff,0,0,0,0,0,0,0.4,0.1,36.50056931,126.337392,15,5,97,16.755,0.025,4.186,4.206,4.181,4.182,0,0,0,0.1,0.8,-143,217,1024,1080,1024,1024,1024,,,,,
22,2.8,0m 2.8s,36.50056863,126.3373928,Manual Takeoff,0,0,0,0,0,0,0.4,0.1,36.50056931,126.337392,15,5,97,16.755,0.025,4.186,4.206,4.181,4.182,0,0,0,0.1,0.8,-143,217,1024,1130,1024,1024,1024,,,,,
23,2.9,0m 2.9s,36.50056863,126.3373928,Manual Takeoff,0,0,0,0,0,0,0.4,0.1,36.50056931,126.337392,15,5,97,16.755,0.025,4.186,4.206,4.181,4.182,0,0,0,0.1,0.8,-143,217,1024,1138,1024,1024,1024,,,,,
24,3,0m 3s,36.50056853,126.3373928,Manual Takeoff,0,0,0,0,0,0,0.4,0.1,36.50056931,126.337392,14,5,97,16.755,0.025,4.186,4.206,4.181,4.182,0,0,0,0.1,0.8,-143,217,1024,1134,1024,1024,1024,,,,,
25,3.1,0m 3.1s,36.50056852,126.3373928,Manual Takeoff,0,0,0,0,0,0,0.4,0.1,36.50056931,126.337392,14,5,97,16.755,0.025,4.186,4.206,4.181,4.182,0,0,0,0.1,0.8,-143,217,1024,1124,1024,1024,1024,,,,,
26,3.2,0m 3.2s,36.50056852,126.3373929,Manual Takeoff,0,0,0,0,0,0,0.4,0.1,36.50056931,126.337392,14,5,97,16.755,0.025,4.186,4.206,4.181,4.182,0,0,0,0.2,0.8,-143,217,1024,1120,1024,1024,1024,,,,,
27,3.3,0m 3.3s,36.50056852,126.3373929,Manual Takeoff,0,0,0,0,NaN,NaN,0.4,0.1,36.50056931,126.337392,14,5,97,16.755,0.025,4.186,4.206,4.181,4.182,0,0,0,0.3,0.8,-143,217,1024,1120,1024,1024,1024,,,,,
28,3.4,0m 3.4s,36.5005684,126.3373929,Manual Takeoff,0,0,0,0,0,0,0.4,0.1,36.50056931,126.337392,14,5,97,16.755,0.025,4.186,4.206,4.181,4.182,0,0,0,0.5,0.9,-143,217,1024,1118,1024,1024,1024,,,,,
29,3.5,0m 3.5s,36.50056841,126.3373929,Manual Takeoff,0,0,0,0,0,0,0.4,0.1,36.50056931,126.337392,14,5,97,16.755,0.025,4.186,4.206,4.181,4.182,0,0,0,0.5,0.9,-143,217,1024,1121,1024,1024,1024,,,,,
30,3.6,0m 3.6s,36.50056841,126.337393,Manual Takeoff,0,0,0,0,0,0,0.4,0.1,36.50056931,126.337392,14,5,97,16.755,0.025,4.186,4.206,4.181,4.182,0,0,0,0.7,0.9,-143,217,1024,1121,1024,1024,1024,,,,,
31,3.7,0m 3.7s,36.50056843,126.337393,Manual Takeoff,0,0,0,0,0,0,0.4,0.1,36.50056931,126.337392,14,5,97,16.484,0.039,4.113,4.12,4.106,4.145,0,0,0,1.2,1.1,-142.9,217.1,1024,1187,1024,1024,1024,,,,,
32,3.8,0m 3.8s,36.50056836,126.3373931,Manual Takeoff,0,0,0,0,0,0,0.6,0.2,36.50056931,126.337392,14,5,97,16.484,0.039,4.113,4.12,4.106,4.145,0,0,0,2.8,1.1,-142.9,217.1,1024,1242,1024,1024,1036,,,,,
33,3.9,0m 3.9s,36.50056841,126.3373931,Manual Takeoff,0,0,0,0,0,0,0.4,0.1,36.50056931,126.337392,14,5,97,16.484,0.039,4.113,4.12,4.106,4.145,0,0,0,5.4,1.1,-143,217,1024,1320,1024,1024,1044,,,,,
34,4,0m 4s,36.50056851,126.3373934,Manual Takeoff,0,0,0.5,0.2,0,0,0.4,0.1,36.50056931,126.337392,14,5,97,16.484,0.039,4.113,4.12,4.106,4.145,0.2,0.1,-0.1,5.4,0.8,-143.4,216.6,1024,1320,1024,1024,1153,,,,,
35,4.1,0m 4.1s,36.50056873,126.3373936,P-GPS,0,0,0.8,0.4,0,0,0.5,0.2,36.50056931,126.337392,14,5,97,16.484,0.039,4.113,4.12,4.106,4.145,0.3,0.2,-0.2,5.6,0.8,-143.6,216.4,1024,1320,1024,1024,1153,,,,,
36,4.2,0m 4.2s,36.5005691,126.3373939,P-GPS,0,0,0.8,0.4,0,0,0.6,0.2,36.50056931,126.337392,15,5,97,16.484,0.039,4.113,4.12,4.106,4.145,0.4,0.3,-0.4,2.8,0.6,-143.8,216.2,1024,1312,1024,1024,1304,,,,,
37,4.3,0m 4.3s,36.50056949,126.3373943,P-GPS,0,0,1.1,0.5,1.5,0.7,0.8,0.2,36.50056931,126.337392,15,5,97,16.484,0.039,4.113,4.12,4.106,4.145,0.4,0.3,-0.4,-4,0.6,-143.9,216.1,1024,1312,1024,1024,1365,,,,,
38,4.4,0m 4.4s,36.50056988,126.3373949,P-GPS,0.3,0.1,0.8,0.4,1.5,0.7,0.9,0.3,36.50056931,126.337392,15,5,97,16.484,0.039,4.113,4.12,4.106,4.145,0.3,0.2,-0.6,-11.3,0.5,-143.9,216.1,1024,1315,1024,1024,1406,,,,,
39,4.5,0m 4.5s,36.50057014,126.3373951,P-GPS,0.7,0.2,0.5,0.2,1.5,0.7,1,0.3,36.50056931,126.337392,15,5,97,16.484,0.039,4.113,4.12,4.106,4.145,0.2,0.1,-0.7,-14.7,0.9,-143.9,216.1,1024,1334,1024,1024,1417,,,,,
40,4.6,0m 4.6s,36.50057018,126.3373952,P-GPS,0.7,0.2,0,0,1.1,0.5,1,0.3,36.50056931,126.337392,15,5,97,16.484,0.039,4.113,4.12,4.106,4.145,0,0,-0.7,-16.1,0.7,-144,216,1024,1334,1024,1024,1417,,,,,
41,4.7,0m 4.7s,36.50057013,126.3373951,P-GPS,1,0.3,0.3,0.1,1.1,0.5,1,0.3,36.50056931,126.337392,15,5,97,16.656,0.03,4.164,4.182,4.158,4.152,-0.1,-0.1,-0.7,-15.6,0.7,-143.9,216.1,1024,1353,1024,1024,1430,,,,,
42,4.8,0m 4.8s,36.50056983,126.3373952,P-GPS,1.3,0.4,0.6,0.3,1.1,0.5,1,0.3,36.50056931,126.337392,15,5,97,16.656,0.03,4.164,4.182,4.158,4.152,-0.2,-0.2,-0.9,-15.4,0.3,-143.9,216.1,1024,1360,1024,1024,1441,,,,,
43,4.9,0m 4.9s,36.50056951,126.337395,P-GPS,1.6,0.5,1.1,0.5,1.5,0.7,0.9,0.3,36.50056931,126.337392,15,5,97,16.656,0.03,4.164,4.182,4.158,4.152,-0.4,-0.3,-1.1,-15.6,0.2,-143.8,216.2,1013,1373,1024,1024,1462,,,,,
44,5,0m 5s,36.50056893,126.3373945,P-GPS,2,0.6,1.3,0.6,1.5,0.7,0.8,0.2,36.50056931,126.337392,15,5,97,16.656,0.03,4.164,4.182,4.158,4.152,-0.5,-0.3,-1.3,-16,0,-143.6,216.4,992,1378,1024,1024,1495,,,,,
45,5.1,0m 5.1s,36.50056836,126.3373941,P-GPS,2.6,0.8,1.8,0.8,1.8,0.8,0.8,0.2,36.50056931,126.337392,15,5,97,16.656,0.03,4.164,4.182,4.158,4.152,-0.7,-0.4,-1.5,-16.2,0.1,-143.6,216.4,979,1385,1024,1024,1524,,,,,
46,5.2,0m 5.2s,36.50056758,126.3373936,P-GPS,3.3,1,2.2,1,2.1,0.9,0.8,0.2,36.50056931,126.337392,14,5,97,16.656,0.03,4.164,4.182,4.158,4.152,-0.8,-0.6,-1.7,-17.5,0,-143.7,216.3,956,1394,1024,1024,1562,,,,,
47,5.3,0m 5.3s,36.50056671,126.3373928,P-GPS,3.9,1.2,2.7,1.2,2.1,0.9,1,0.3,36.50056931,126.337392,14,5,97,16.656,0.03,4.164,4.182,4.158,4.152,-1,-0.7,-1.8,-19.1,0.2,-143.9,216.1,858,1359,1024,1024,1584,,,,,
48,5.4,0m 5.4s,36.50056535,126.3373917,P-GPS,4.3,1.3,2.7,1.2,3.4,1.5,1.5,0.4,36.50056931,126.337392,15,5,97,16.656,0.03,4.164,4.182,4.158,4.152,-1.2,-0.8,-1.8,-20.5,-0.2,-144.1,215.9,724,1313,1024,1024,1632,,,,,
49,5.5,0m 5.5s,36.5005645,126.3373907,P-GPS,4.9,1.5,3.8,1.7,3.4,1.5,1.8,0.5,36.50056931,126.337392,15,5,97,16.656,0.03,4.164,4.182,4.158,4.152,-1.4,-1,-1.7,-21.4,-2,-143.8,216.2,686,1311,1024,1024,1684,,,,,
50,5.6,0m 5.6s,36.50056251,126.3373895,P-GPS,5.6,1.7,4.3,1.9,4.2,1.9,2.6,0.8,36.50056931,126.337392,15,5,97,16.656,0.03,4.164,4.182,4.158,4.152,-1.6,-1.1,-1.6,-21.7,-6,-143.3,216.7,699,1314,1024,1028,1684,,,,,
51,5.7,0m 5.7s,36.50056091,126.3373882,P-GPS,6.2,1.9,4.7,2.1,5,2.2,3.3,1,36.50056931,126.337392,15,5,97,15.879,0.137,4.03,4.037,3.912,3.9,-1.8,-1.1,-1.5,-21,-8,-142.8,217.2,695,1317,1024,1024,1684,,,,,
52,5.8,0m 5.8s,36.50055897,126.3373868,P-GPS,6.6,2,5.1,2.3,5,2.2,4.1,1.2,36.50056931,126.337392,15,5,97,15.879,0.137,4.03,4.037,3.912,3.9,-2,-1.1,-1.5,-20.6,-8.8,-142.6,217.4,686,1322,1024,1024,1684,,,,,
53,5.9,0m 5.9s,36.50055696,126.3373855,P-GPS,7.2,2.2,5.7,2.6,5.4,2.4,4.9,1.5,36.50056931,126.337392,15,5,97,15.879,0.137,4.03,4.037,3.912,3.9,-2.3,-1.1,-1.5,-20.6,-9.2,-142.7,217.3,653,1313,1024,1024,1684,,,,,
54,6,0m 6s,36.50055436,126.3373841,P-GPS,7.9,2.4,6.2,2.8,6.2,2.8,5.9,1.8,36.50056931,126.337392,14,5,97,15.879,0.137,4.03,4.037,3.912,3.9,-2.5,-1.2,-1.5,-20.6,-9,-142.6,217.4,647,1314,1024,1024,1684,,,,,
55,6.1,0m 6.1s,36.50055194,126.3373827,P-GPS,8.2,2.5,6.6,3,6.8,3,6.9,2.1,36.50056931,126.337392,14,5,97,15.879,0.137,4.03,4.037,3.912,3.9,-2.7,-1.2,-1.5,-19.9,-9.5,-142.6,217.4,637,1322,1024,998,1684,,,,,
56,6.2,0m 6.2s,36.50054904,126.3373811,P-GPS,8.9,2.7,7.2,3.2,7.4,3.3,8.1,2.5,36.50056931,126.337392,14,5,97,15.879,0.137,4.03,4.037,3.912,3.9,-3,-1.2,-1.4,-19.2,-10.1,-142.8,217.2,686,1346,1024,976,1684,,,,,
57,6.3,0m 6.3s,36.5005462,126.3373796,P-GPS,9.2,2.8,7.7,3.4,7.8,3.5,9.2,2.8,36.50056931,126.337392,14,5,97,15.879,0.137,4.03,4.037,3.912,3.9,-3.2,-1.2,-1.4,-19.4,-10.2,-143,217,720,1372,1024,950,1684,,,,,
58,6.4,0m 6.4s,36.50054246,126.3373782,P-GPS,9.5,2.9,8.3,3.7,8.6,3.9,10.6,3.2,36.50056931,126.337392,15,5,97,15.879,0.137,4.03,4.037,3.912,3.9,-3.5,-1.3,-1.4,-20.1,-9.7,-143.2,216.8,727,1372,1024,931,1684,,,,,
59,6.5,0m 6.5s,36.50053932,126.3373764,P-GPS,10.2,3.1,8.8,3.9,9.1,4.1,11.9,3.6,36.50056931,126.337392,15,5,97,15.879,0.137,4.03,4.037,3.912,3.9,-3.7,-1.3,-1.5,-20.1,-8.5,-143.6,216.4,754,1375,1024,954,1684,,,,,
60,6.6,0m 6.6s,36.50053531,126.3373749,P-GPS,10.8,3.3,9.5,4.2,9.5,4.2,13.4,4.1,36.50056931,126.337392,15,5,97,15.879,0.137,4.03,4.037,3.912,3.9,-4,-1.4,-1.6,-20.5,-7.7,-144.5,215.5,754,1378,1024,941,1684,,,,,
61,6.7,0m 6.7s,36.50053157,126.3373732,P-GPS,11.2,3.4,9.9,4.4,10.2,4.6,14.8,4.5,36.50056931,126.337392,15,5,97,15.108,0.074,3.823,3.784,3.749,3.752,-4.2,-1.4,-1.7,-20.6,-7,-145.3,214.7,777,1386,1024,966,1684,,,,,
62,6.8,0m 6.8s,36.50052677,126.3373713,P-GPS,11.8,3.6,10.6,4.7,11.2,5,16.7,5.1,36.50056931,126.337392,15,5,97,15.108,0.074,3.823,3.784,3.749,3.752,-4.5,-1.5,-1.8,-21,-6.8,-145.9,214.1,797,1411,1024,963,1684,,,,,
63,6.9,0m 6.9s,36.50052257,126.3373695,P-GPS,12.5,3.8,11,4.9,11.8,5.3,18.3,5.6,36.50056931,126.337392,15,5,97,15.108,0.074,3.823,3.784,3.749,3.752,-4.7,-1.5,-1.8,-21.5,-5.8,-146.1,213.9,756,1395,1024,973,1684,,,,,
64,7,0m 7s,36.50051744,126.3373678,P-GPS,13.1,4,11.7,5.3,12.1,5.4,20.2,6.2,36.50056931,126.337392,15,5,97,15.108,0.074,3.823,3.784,3.749,3.752,-5,-1.6,-1.9,-21.4,-4.8,-146.4,213.6,754,1390,1024,966,1684,,,,,
65,7.1,0m 7.1s,36.50051265,126.3373657,P-GPS,13.8,4.2,12.2,5.4,13,5.8,22.1,6.7,36.50056931,126.337392,15,5,97,15.108,0.074,3.823,3.784,3.749,3.752,-5.2,-1.6,-1.9,-21.3,-5.3,-147,213,787,1377,1024,995,1684,,,,,
66,7.2,0m 7.2s,36.5005069,126.3373637,P-GPS,14.4,4.4,12.2,5.4,13.8,6.2,24.2,7.4,36.50056931,126.337392,15,5,97,15.108,0.074,3.823,3.784,3.749,3.752,-5.5,-1.7,-1.9,-21.3,-6,-147.8,212.2,831,1380,1024,950,1684,,,,,
67,7.3,0m 7.3s,36.50050178,126.3373617,P-GPS,15.1,4.6,13.3,6,14.1,6.3,26.2,8,36.50056931,126.337392,15,5,97,15.108,0.074,3.823,3.784,3.749,3.752,-5.7,-1.7,-1.9,-21.3,-5.6,-148.2,211.8,845,1352,1024,1024,1684,,,,,
68,7.4,0m 7.4s,36.50049542,126.3373596,P-GPS,15.7,4.8,13.8,6.2,14.9,6.6,28.6,8.7,36.50056931,126.337392,15,5,97,15.108,0.074,3.823,3.784,3.749,3.752,-5.9,-1.8,-1.9,-22.3,-4.7,-148.8,211.2,842,1375,1024,1012,1684,,,,,
69,7.5,0m 7.5s,36.50048995,126.3373575,P-GPS,16.4,5,14.2,6.4,15.3,6.8,30.7,9.3,36.50056931,126.337392,15,5,97,15.108,0.074,3.823,3.784,3.749,3.752,-6.1,-1.8,-1.9,-22.5,-3.8,-149.3,210.7,811,1378,1024,1014,1684,,,,,
70,7.6,0m 7.6s,36.50048364,126.3373554,P-GPS,17.1,5.2,14.7,6.6,15.2,6.8,33.1,10.1,36.50056931,126.337392,15,5,97,15.108,0.074,3.823,3.784,3.749,3.752,-6.3,-1.9,-1.9,-22.5,-3.4,-149.8,210.2,811,1403,1024,1024,1684,,,,,
71,7.7,0m 7.7s,36.50047762,126.337353,P-GPS,17.7,5.4,15,6.7,16,7.1,35.4,10.8,36.50056931,126.337392,15,5,97,15.208,0.033,3.813,3.82,3.787,3.788,-6.4,-2,-1.9,-21.7,-3,-150.5,209.5,825,1464,1024,1024,1684,,,,,
72,7.8,0m 7.8s,36.50047098,126.3373508,P-GPS,18.4,5.6,15.4,6.9,16.4,7.3,37.9,11.5,36.50056931,126.337392,15,5,97,15.208,0.033,3.813,3.82,3.787,3.788,-6.6,-2,-1.8,-21.2,-2.7,-151,209,900,1516,1024,1020,1684,,,,,
73,7.9,0m 7.9s,36.50046486,126.3373484,P-GPS,19,5.8,15.9,7.1,16.5,7.4,40.2,12.3,36.50056931,126.337392,15,5,97,15.208,0.033,3.813,3.82,3.787,3.788,-6.8,-2.1,-2.1,-20.1,-2.2,-151.4,208.6,895,1522,1024,1024,1684,,,,,
74,8,0m 8s,36.50045763,126.3373459,P-GPS,20,6.1,16.6,7.4,17.3,7.7,42.9,13.1,36.50056931,126.337392,15,5,97,15.208,0.033,3.813,3.82,3.787,3.788,-7.1,-2.2,-2.5,-20.3,-1.5,-152.1,207.9,890,1528,1024,1024,1684,,,,,
75,8.1,0m 8.1s,36.50045114,126.3373433,P-GPS,20.7,6.3,16.9,7.6,17.8,8,45.4,13.8,36.50056931,126.337392,15,5,97,15.208,0.033,3.813,3.82,3.787,3.788,-7.2,-2.3,-2.8,-20.4,-1.2,-152.9,207.1,886,1530,1024,1024,1684,,,,,
76,8.2,0m 8.2s,36.50044391,126.3373406,P-GPS,21.7,6.6,17.4,7.8,17.9,8,48.2,14.7,36.50056931,126.337392,15,5,97,15.208,0.033,3.813,3.82,3.787,3.788,-7.4,-2.4,-2.8,-20.7,-1.9,-153.6,206.4,880,1525,1024,1004,1684,,,,,
77,8.3,0m 8.3s,36.50043677,126.3373378,P-GPS,22.6,6.9,17.9,8,18.7,8.3,50.9,15.5,36.50056931,126.337392,15,5,97,15.208,0.033,3.813,3.82,3.787,3.788,-7.6,-2.5,-3,-21.2,-2.2,-154.1,205.9,869,1521,1024,975,1684,,,,,
78,8.4,0m 8.4s,36.50042926,126.3373348,P-GPS,23.6,7.2,18.1,8.1,19.1,8.5,53.8,16.4,36.50056931,126.337392,15,5,97,15.208,0.033,3.813,3.82,3.787,3.788,-7.7,-2.5,-3.1,-21.9,-2.2,-154.4,205.6,872,1522,1024,937,1684,,,,,
79,8.5,0m 8.5s,36.50042221,126.3373319,P-GPS,24.9,7.6,18.3,8.2,19,8.5,56.5,17.2,36.50056931,126.337392,15,5,97,15.208,0.033,3.813,3.82,3.787,3.788,-7.8,-2.5,-3,-21.9,-2.5,-154.8,205.2,873,1515,1024,825,1684,,,,,
80,8.6,0m 8.6s,36.50041425,126.3373289,P-GPS,25.6,7.8,18.8,8.4,19.6,8.8,59.5,18.1,36.50056931,126.337392,15,5,97,15.208,0.033,3.813,3.82,3.787,3.788,-8,-2.6,-3,-21.9,-2.1,-156,204,872,1514,1024,811,1684,,,,,
81,8.7,0m 8.7s,36.50040695,126.3373259,P-GPS,26.9,8.2,19,8.5,19.9,8.9,62.3,19,36.50056931,126.337392,15,5,97,14.918,0.023,3.724,3.729,3.721,3.744,-8.1,-2.6,-3,-21.9,-1.9,-158.2,201.8,876,1517,1024,865,1684,,,,,
82,8.8,0m 8.8s,36.50039905,126.3373229,P-GPS,27.6,8.4,19.5,8.7,19.8,8.9,65.3,19.9,36.50056931,126.337392,15,5,97,14.918,0.023,3.724,3.729,3.721,3.744,-8.3,-2.7,-3,-21.9,-2.2,-161,199,893,1519,1024,885,1684,,,,,
83,8.9,0m 8.9s,36.50039128,126.3373197,P-GPS,28.9,8.8,19.5,8.7,20.4,9.1,68.3,20.8,36.50056931,126.337392,15,5,97,14.918,0.023,3.724,3.729,3.721,3.744,-8.4,-2.6,-3.2,-22.5,-2.3,-163.2,196.8,893,1525,1024,878,1684,,,,,
84,9,0m 9s,36.50038307,126.3373169,P-GPS,29.9,9.1,19.9,8.9,20.8,9.3,71.4,21.8,36.50056931,126.337392,15,5,97,14.918,0.023,3.724,3.729,3.721,3.744,-8.5,-2.6,-3,-23,-2.2,-165.1,194.9,896,1522,1024,921,1684,,,,,
85,9.2,0m 9.2s,36.50036699,126.3373113,P-GPS,31.8,9.7,20.5,9.2,20.9,9.3,77.5,23.6,36.50056931,126.337392,15,5,97,14.918,0.023,3.724,3.729,3.721,3.744,-8.8,-2.5,-3,-21.9,-2.5,-168.3,191.7,896,1516,1024,962,1684,,,,,
86,9.3,0m 9.3s,36.50035882,126.3373084,P-GPS,32.8,10,20.6,9.2,20.9,9.3,80.6,24.6,36.50056931,126.337392,15,5,97,14.918,0.023,3.724,3.729,3.721,3.744,-8.9,-2.3,-3.1,-21.3,-2.5,-169,191,902,1525,1024,973,1684,,,,,
87,9.5,0m 9.5s,36.50034203,126.3373033,P-GPS,35.1,10.7,21,9.4,21.4,9.6,86.9,26.5,36.50056931,126.337392,15,5,97,14.918,0.023,3.724,3.729,3.721,3.744,-9.1,-2.3,-3.2,-22.9,-2,-169.2,190.8,901,1518,1024,970,1684,,,,,
88,9.6,0m 9.6s,36.50033328,126.337301,P-GPS,36.1,11,21.2,9.5,21.7,9.7,90.1,27.5,36.50056931,126.337392,15,5,97,14.918,0.023,3.724,3.729,3.721,3.744,-9.2,-2.2,-3.2,-22.7,-2.4,-169.4,190.6,899,1520,1024,959,1684,,,,,
89,9.7,0m 9.7s,36.50032491,126.3372984,P-GPS,37.4,11.4,21.4,9.6,21.8,9.8,93.3,28.4,36.50056931,126.337392,15,5,97,14.725,0.133,3.762,3.698,3.629,3.636,-9.3,-2.2,-3.3,-21.8,-2,-170,190,897,1516,1024,982,1684,,,,,
90,9.8,0m 9.8s,36.50031607,126.3372963,P-GPS,38.4,11.7,21.5,9.6,21.9,9.8,96.6,29.4,36.50056931,126.337392,15,5,97,14.725,0.133,3.762,3.698,3.629,3.636,-9.4,-2.1,-3.3,-21.7,-2,-170.2,189.8,900,1522,1024,982,1684,,,,,
91,9.9,0m 9.9s,36.50030743,126.3372938,P-GPS,39.7,12.1,21.5,9.6,22.2,9.9,99.8,30.4,36.50056931,126.337392,15,5,97,14.725,0.133,3.762,3.698,3.629,3.636,-9.4,-2.1,-3.2,-22.3,-2.5,-170.4,189.6,904,1523,1024,979,1684,,,,,
92,10,0m 10s,36.50029856,126.3372919,P-GPS,40.7,12.4,21.7,9.7,22.2,9.9,103,31.4,36.50056931,126.337392,15,5,97,14.725,0.133,3.762,3.698,3.629,3.636,-9.5,-2,-3.1,-22.4,-2.7,-170.5,189.5,908,1522,1024,991,1684,,,,,
93,10.1,0m 10.1s,36.50028989,126.3372896,P-GPS,41.7,12.7,21.9,9.8,22.2,9.9,106.3,32.4,36.50056931,126.337392,15,5,97,14.725,0.133,3.762,3.698,3.629,3.636,-9.6,-1.9,-3.1,-21.9,-2.5,-170.8,189.2,921,1523,1024,1016,1684,,,,,
94,10.3,0m 10.3s,36.50027193,126.3372859,P-GPS,43.6,13.3,22.3,10,22.4,10,112.9,34.4,36.50056931,126.337392,15,5,97,14.725,0.133,3.762,3.698,3.629,3.636,-9.8,-1.8,-3.1,-21.7,-2.2,-170.8,189.2,940,1522,1024,1003,1684,,,,,
95,10.4,0m 10.4s,36.50026277,126.3372844,P-GPS,44.6,13.6,22.5,10,22.8,10.2,116.2,35.4,36.50056931,126.337392,15,5,97,14.725,0.133,3.762,3.698,3.629,3.636,-9.9,-1.7,-3.2,-22.2,-1.9,-170.8,189.2,932,1538,1024,997,1684,,,,,
96,10.5,0m 10.5s,36.50025372,126.3372826,P-GPS,45.6,13.9,22.4,10,22.9,10.2,119.5,36.4,36.50056931,126.337392,15,5,97,14.725,0.133,3.762,3.698,3.629,3.636,-9.9,-1.6,-3.2,-21.9,-1.1,-170.8,189.2,953,1528,1024,1002,1684,,,,,
97,10.6,0m 10.6s,36.5002443,126.3372812,P-GPS,46.6,14.2,22.7,10.1,23.2,10.4,122.9,37.5,36.50056931,126.337392,15,5,97,14.725,0.133,3.762,3.698,3.629,3.636,-10,-1.6,-3.2,-22,-0.8,-170.8,189.2,952,1544,1024,1012,1684,,,,,
98,10.7,0m 10.7s,36.50023521,126.3372794,P-GPS,47.9,14.6,22.7,10.1,23.3,10.4,126.3,38.5,36.50056931,126.337392,15,5,97,14.69,0.099,3.72,3.71,3.639,3.621,-10,-1.6,-3.2,-23,-1,-170.7,189.3,969,1551,1024,1009,1684,,,,,
99,10.8,0m 10.8s,36.50022576,126.3372782,P-GPS,48.9,14.9,22.9,10.2,23.2,10.4,129.7,39.5,36.50056931,126.337392,15,5,97,14.69,0.099,3.72,3.71,3.639,3.621,-10.1,-1.6,-3.2,-21.8,-1,-170.9,189.1,950,1543,1024,998,1684,,,,,
100,10.9,0m 10.9s,36.50021656,126.3372764,P-GPS,49.9,15.2,22.9,10.2,23.4,10.5,133.1,40.6,36.50056931,126.337392,15,5,97,14.69,0.099,3.72,3.71,3.639,3.621,-10.2,-1.6,-3.4,-20.6,-0.5,-171.2,188.8,950,1538,1024,1011,1684,,,,,
101,11,0m 11s,36.50020698,126.337275,P-GPS,50.9,15.5,23.3,10.4,23.6,10.5,136.6,41.6,36.50056931,126.337392,15,5,97,14.69,0.099,3.72,3.71,3.639,3.621,-10.3,-1.5,-3.2,-21.5,-0.6,-171.4,188.6,917,1526,1024,992,1684,,,,,
102,11.1,0m 11.1s,36.50019752,126.3372735,P-GPS,51.8,15.8,23.2,10.4,23.8,10.7,140,42.7,36.50056931,126.337392,15,5,97,14.69,0.099,3.72,3.71,3.639,3.621,-10.3,-1.4,-3.4,-21.8,-0.9,-171.5,188.5,838,1482,1024,997,1684,,,,,
103,11.2,0m 11.2s,36.50018794,126.3372723,P-GPS,53.1,16.2,23.2,10.4,23.8,10.7,143.5,43.7,36.50056931,126.337392,15,5,97,14.69,0.099,3.72,3.71,3.639,3.621,-10.3,-1.3,-3.4,-23.3,-1.3,-171.4,188.6,707,1425,1024,1008,1684,,,,,
104,11.3,0m 11.3s,36.5001786,126.3372708,P-GPS,54.1,16.5,23.2,10.4,23.7,10.6,146.9,44.8,36.50056931,126.337392,15,5,97,14.69,0.099,3.72,3.71,3.639,3.621,-10.3,-1.2,-3.4,-22.6,-0.9,-171.3,188.7,613,1387,1024,1013,1684,,,,,
105,11.4,0m 11.4s,36.50016898,126.3372702,P-GPS,55.4,16.9,23.2,10.4,23.6,10.6,150.3,45.8,36.50056931,126.337392,15,5,97,14.69,0.099,3.72,3.71,3.639,3.621,-10.3,-1.2,-3.1,-22.8,-3.5,-170.7,189.3,505,1352,1024,1007,1684,,,,,
106,11.5,0m 11.5s,36.5001597,126.3372688,P-GPS,56.1,17.1,23,10.3,23.6,10.5,153.7,46.9,36.50056931,126.337392,15,5,97,14.69,0.099,3.72,3.71,3.639,3.621,-10.2,-1.1,-2.7,-22.4,-8.1,-170.1,189.9,444,1342,1024,992,1684,,,,,
107,11.6,0m 11.6s,36.50015035,126.3372682,P-GPS,56.8,17.3,22.9,10.2,23.3,10.4,157.1,47.9,36.50056931,126.337392,15,5,97,14.69,0.099,3.72,3.71,3.639,3.621,-10.2,-0.9,-2.3,-20.9,-12.8,-169.5,190.5,466,1356,1024,989,1684,,,,,
108,11.7,0m 11.7s,36.50014111,126.3372674,P-GPS,57.4,17.5,22.9,10.2,23.2,10.4,160.4,48.9,36.50056931,126.337392,15,5,97,14.627,0.096,3.709,3.686,3.619,3.613,-10.2,-0.6,-2.2,-19,-16,-169.4,190.6,456,1339,1024,976,1684,,,,,
109,11.8,0m 11.8s,36.50013169,126.3372673,P-GPS,58.1,17.7,23,10.3,23.3,10.4,163.8,49.9,36.50056931,126.337392,15,5,97,14.627,0.096,3.709,3.686,3.619,3.613,-10.3,-0.3,-2.1,-17.2,-17.8,-169.9,190.1,406,1325,1024,972,1684,,,,,
110,11.9,0m 11.9s,36.50012241,126.3372671,P-GPS,58.7,17.9,22.8,10.2,23.3,10.4,167.1,50.9,36.50056931,126.337392,15,5,97,14.627,0.096,3.709,3.686,3.619,3.613,-10.2,0,-2,-16.8,-17.9,-170.1,189.9,418,1330,1024,982,1684,,,,,
111,12,0m 12s,36.50011296,126.337268,P-GPS,59.1,18,22.8,10.2,23.3,10.4,170.4,51.9,36.50056931,126.337392,15,5,97,14.627,0.096,3.709,3.686,3.619,3.613,-10.2,0.1,-1.8,-16.6,-17.8,-170.5,189.5,436,1330,1024,1000,1684,,,,,
112,12.1,0m 12.1s,36.50010376,126.3372684,P-GPS,59.7,18.2,22.6,10.1,23.2,10.4,173.7,52.9,36.50056931,126.337392,15,5,97,14.627,0.096,3.709,3.686,3.619,3.613,-10.1,0.4,-1.8,-15.5,-18.1,-171.3,188.7,525,1378,1024,1020,1684,,,,,
113,12.2,0m 12.2s,36.50009435,126.3372697,P-GPS,60,18.3,22.9,10.2,23.2,10.4,176.9,53.9,36.50056931,126.337392,15,5,97,14.627,0.096,3.709,3.686,3.619,3.613,-10.2,0.7,-1.6,-15.6,-18.5,-171.6,188.4,525,1400,1024,1011,1684,,,,,
114,12.3,0m 12.3s,36.50008518,126.3372707,P-GPS,60.4,18.4,22.7,10.1,23.2,10.4,180.2,54.9,36.50056931,126.337392,15,5,97,14.627,0.096,3.709,3.686,3.619,3.613,-10.1,0.9,-1.5,-16.1,-18,-172.1,187.9,512,1403,1024,1015,1684,,,,,
115,12.4,0m 12.4s,36.50007581,126.3372729,P-GPS,60.7,18.5,23,10.3,23.3,10.4,183.4,55.9,36.50056931,126.337392,15,5,97,14.627,0.096,3.709,3.686,3.619,3.613,-10.2,1.2,-1.8,-16.2,-16.6,-172.5,187.5,548,1413,1024,1016,1684,,,,,
116,12.5,0m 12.5s,36.50006662,126.3372745,P-GPS,61.4,18.7,22.8,10.2,23.4,10.5,186.6,56.9,36.50056931,126.337392,15,5,97,14.627,0.096,3.709,3.686,3.619,3.613,-10.1,1.5,-1.9,-17.1,-16,-172.7,187.3,572,1421,1024,1020,1684,,,,,
117,12.6,0m 12.6s,36.50005733,126.3372772,P-GPS,61.7,18.8,22.8,10.2,23.4,10.5,189.8,57.8,36.50056931,126.337392,15,5,97,14.627,0.096,3.709,3.686,3.619,3.613,-10.2,1.8,-2,-17.4,-15.7,-173.2,186.8,585,1425,1024,1020,1684,,,,,
118,12.7,0m 12.7s,36.5000479,126.3372796,P-GPS,62.3,19,23.2,10.4,23.8,10.7,193,58.8,36.50056931,126.337392,15,5,97,15.015,0.048,3.778,3.767,3.73,3.74,-10.2,2,-2.1,-17.9,-14.4,-173.7,186.3,652,1485,1024,1024,1684,,,,,
119,12.8,0m 12.8s,36.50003871,126.3372829,P-GPS,63,19.2,23.1,10.3,23.8,10.6,196.2,59.8,36.50056931,126.337392,15,5,97,15.015,0.048,3.778,3.767,3.73,3.74,-10.1,2.2,-2.3,-19.3,-13.9,-174.1,185.9,664,1485,1024,1017,1684,,,,,
120,12.9,0m 12.9s,36.50002958,126.3372854,P-GPS,63.6,19.4,23.2,10.4,23.5,10.5,199.4,60.8,36.50056931,126.337392,15,5,97,15.015,0.048,3.778,3.767,3.73,3.74,-10.1,2.3,-2.4,-19.8,-12.7,-174.8,185.2,726,1517,1024,1020,1684,,,,,
121,13,0m 13s,36.5000204,126.3372895,P-GPS,64.3,19.6,23.3,10.4,23.7,10.6,202.5,61.7,36.50056931,126.337392,15,5,97,15.015,0.048,3.778,3.767,3.73,3.74,-10.1,2.5,-2.6,-19.5,-11.3,-175.4,184.6,727,1515,1024,1010,1684,,,,,
122,13.1,0m 13.1s,36.50001126,126.3372924,P-GPS,65.3,19.9,23.3,10.4,23.8,10.7,205.7,62.7,36.50056931,126.337392,15,5,97,15.015,0.048,3.778,3.767,3.73,3.74,-10.1,2.5,-2.7,-20.3,-9.5,-176.2,183.8,728,1519,1024,1007,1684,,,,,
123,13.2,0m 13.2s,36.50000236,126.3372964,P-GPS,65.9,20.1,23.4,10.5,23.5,10.5,208.7,63.6,36.50056931,126.337392,15,5,97,15.015,0.048,3.778,3.767,3.73,3.74,-10.1,2.7,-2.6,-21.3,-8,-177,183,754,1530,1024,1024,1684,,,,,
124,13.3,0m 13.3s,36.49999331,126.3372999,P-GPS,66.6,20.3,23.4,10.5,23.6,10.5,211.9,64.6,36.50056931,126.337392,15,5,97,15.015,0.048,3.778,3.767,3.73,3.74,-10.1,2.7,-2.8,-21.1,-6.9,-177.7,182.3,758,1528,1024,1022,1684,,,,,
125,13.4,0m 13.4s,36.49998418,126.3373039,P-GPS,67.6,20.6,23.4,10.5,23.8,10.6,215,65.5,36.50056931,126.337392,15,5,97,15.015,0.048,3.778,3.767,3.73,3.74,-10.1,2.8,-2.8,-21.5,-5.9,-178.2,181.8,755,1533,1024,1020,1684,,,,,
126,13.5,0m 13.5s,36.49997504,126.3373071,P-GPS,68.2,20.8,23.4,10.5,23.8,10.6,218.2,66.5,36.50056931,126.337392,15,5,97,15.015,0.048,3.778,3.767,3.73,3.74,-10.1,2.8,-2.9,-22,-5.4,-178.5,181.5,757,1539,1024,1017,1684,,,,,
127,13.6,0m 13.6s,36.49996627,126.3373117,P-GPS,69.2,21.1,23.3,10.4,23.6,10.5,221.2,67.4,36.50056931,126.337392,15,5,97,15.015,0.048,3.778,3.767,3.73,3.74,-10,2.9,-3,-22,-5,-178.4,181.6,769,1538,1024,1023,1684,,,,,
128,13.7,0m 13.7s,36.4999572,126.337315,P-GPS,70.5,21.5,23.2,10.4,23.5,10.5,224.4,68.4,36.50056931,126.337392,15,5,97,14.73,0.051,3.65,3.701,3.686,3.693,-10,2.8,-3.1,-21.9,-4.5,-178.3,181.7,770,1539,1024,1024,1684,,,,,
129,13.8,0m 13.8s,36.49994831,126.337319,P-GPS,71.2,21.7,23.1,10.3,23.5,10.5,227.5,69.4,36.50056931,126.337392,15,5,97,14.73,0.051,3.65,3.701,3.686,3.693,-9.9,2.9,-3,-22.2,-4.5,-178.3,181.7,771,1535,1024,1020,1684,,,,,
130,13.9,0m 13.9s,36.4999397,126.3373228,P-GPS,72.2,22,23,10.3,23.2,10.4,230.6,70.3,36.50056931,126.337392,15,5,97,14.73,0.051,3.65,3.701,3.686,3.693,-9.9,2.8,-3.1,-22,-4.1,-178.6,181.4,772,1531,911,1017,1684,,,,,
131,14,0m 14s,36.49993099,126.3373269,P-GPS,73.2,22.3,22.9,10.2,22.9,10.2,233.6,71.2,36.50056931,126.337392,15,5,97,14.73,0.051,3.65,3.701,3.686,3.693,-9.8,2.9,-3.2,-21.3,-3.3,-178.8,181.2,772,1531,911,1017,1684,,,,,
132,14.1,0m 14.1s,36.49992211,126.3373301,P-GPS,74.1,22.6,22.8,10.2,23.1,10.3,236.8,72.2,36.50056931,126.337392,15,5,97,14.73,0.051,3.65,3.701,3.686,3.693,-9.8,2.8,-3.1,-21.8,-3.6,-178.9,181.1,776,1531,643,1015,1684,,,,,
133,14.2,0m 14.2s,36.49991381,126.3373344,P-GPS,75.1,22.9,22.8,10.2,22.6,10.1,239.7,73.1,36.50056931,126.337392,15,5,97,14.73,0.051,3.65,3.701,3.686,3.693,-9.8,2.8,-3.1,-21.8,-3.5,-179.1,180.9,785,1532,661,1022,1684,,,,,
134,14.3,0m 14.3s,36.49990496,126.3373375,P-GPS,76.1,23.2,22.7,10.2,22.6,10.1,242.9,74,36.50056931,126.337392,15,5,97,14.73,0.051,3.65,3.701,3.686,3.693,-9.8,2.7,-3.4,-22.3,-3.8,-179,181,787,1533,1024,1024,1684,,,,,
135,14.4,0m 14.4s,36.49989633,126.3373412,P-GPS,77.1,23.5,22.5,10.1,22.8,10.2,246,75,36.50056931,126.337392,15,5,97,14.73,0.051,3.65,3.701,3.686,3.693,-9.7,2.7,-3.3,-22.6,-3.6,-179,181,795,1533,1024,1020,1684,,,,,
136,14.5,0m 14.5s,36.49988788,126.3373449,P-GPS,78.1,23.8,22.5,10.1,22.5,10,249,75.9,36.50056931,126.337392,15,5,97,14.73,0.051,3.65,3.701,3.686,3.693,-9.7,2.7,-3.2,-22.3,-3.5,-179.1,180.9,795,1533,1024,1020,1684,,,,,
137,14.6,0m 14.6s,36.49987951,126.3373484,P-GPS,79.1,24.1,22.3,10,22.1,9.9,252,76.8,36.50056931,126.337392,15,5,97,14.73,0.051,3.65,3.701,3.686,3.693,-9.6,2.7,-3.1,-22.1,-3.5,-179.2,180.8,727,1499,1024,1002,1684,,,,,
138,14.7,0m 14.7s,36.49987076,126.3373515,P-GPS,80.1,24.4,22.5,10.1,22.3,10,255.1,77.8,36.50056931,126.337392,15,5,97,14.493,0.045,3.641,3.637,3.596,3.619,-9.7,2.7,-3.3,-22,-3.4,-179.1,180.9,610,1441,1024,995,1684,,,,,
139,14.8,0m 14.8s,36.49986282,126.3373553,P-GPS,81,24.7,22.3,10,21.9,9.8,257.9,78.6,36.50056931,126.337392,15,5,97,14.493,0.045,3.641,3.637,3.596,3.619,-9.6,2.7,-3.2,-22.6,-4.8,-178.2,181.8,462,1370,1024,962,1684,,,,,
140,14.9,0m 14.9s,36.4998542,126.3373585,P-GPS,82,25,21.9,9.8,21.8,9.7,261.1,79.6,36.50056931,126.337392,15,5,97,14.493,0.045,3.641,3.637,3.596,3.619,-9.4,2.8,-2.9,-22.8,-9.5,-177.7,182.3,429,1349,1024,892,1684,,,,,
141,15,0m 15s,36.49984596,126.3373622,P-GPS,82.7,25.2,21.6,9.7,22.1,9.9,264,80.5,36.50056931,126.337392,15,5,97,14.493,0.045,3.641,3.637,3.596,3.619,-9.2,2.9,-2.6,-22.1,-13.7,-178,182,484,1376,1024,899,1684,,,,,
142,15.1,0m 15.1s,36.49983819,126.337366,P-GPS,83.3,25.4,21.2,9.5,21.3,9.5,266.8,81.3,36.50056931,126.337392,15,5,97,14.493,0.045,3.641,3.637,3.596,3.619,-9,3,-2.3,-20.7,-15.5,-179.5,180.5,502,1381,1024,910,1684,,,,,
143,15.2,0m 15.2s,36.49983035,126.33737,P-GPS,84,25.6,21.2,9.5,20.9,9.3,269.6,82.2,36.50056931,126.337392,15,5,97,14.493,0.045,3.641,3.637,3.596,3.619,-8.9,3.3,-2.2,-18.8,-15.5,178.8,178.8,536,1393,1024,909,1684,,,,,
144,15.3,0m 15.3s,36.49982226,126.3373738,P-GPS,84.6,25.8,21.4,9.6,21.3,9.5,272.6,83.1,36.50056931,126.337392,15,5,97,14.493,0.045,3.641,3.637,3.596,3.619,-8.9,3.5,-2.2,-18.7,-15,177.6,177.6,542,1399,1024,910,1684,,,,,
145,15.4,0m 15.4s,36.49981454,126.3373785,P-GPS,85.3,26,21.4,9.6,21.4,9.6,275.4,83.9,36.50056931,126.337392,15,5,97,14.493,0.045,3.641,3.637,3.596,3.619,-8.8,3.7,-2.2,-19.5,-14.4,176.9,176.9,547,1400,1024,918,1684,,,,,
146,15.5,0m 15.5s,36.49980686,126.337383,P-GPS,86,26.2,21.3,9.5,21.2,9.5,278.2,84.8,36.50056931,126.337392,15,5,97,14.493,0.045,3.641,3.637,3.596,3.619,-8.7,3.9,-2.2,-19.5,-14.2,175.8,175.8,546,1404,1024,912,1684,,,,,
147,15.6,0m 15.6s,36.49979912,126.3373882,P-GPS,86.6,26.4,21.5,9.6,21.5,9.6,281,85.6,36.50056931,126.337392,15,5,97,14.493,0.045,3.641,3.637,3.596,3.619,-8.7,4.1,-2,-19.8,-13.9,174.9,174.9,551,1405,1024,913,1684,,,,,
148,15.7,0m 15.7s,36.49979129,126.337393,P-GPS,86.9,26.5,21.5,9.6,21.8,9.7,283.8,86.5,36.50056931,126.337392,15,5,97,14.493,0.045,3.641,3.637,3.596,3.619,-8.6,4.3,-2,-19.3,-13.3,173.9,173.9,553,1405,1024,912,1684,,,,,
149,15.9,0m 15.9s,36.499776,126.3374043,P-GPS,87.9,26.8,22,9.9,22,9.8,289.4,88.2,36.50056931,126.337392,15,5,97,14.493,0.045,3.641,3.637,3.596,3.619,-8.6,4.8,-2.1,-18.8,-12.6,171.7,171.7,565,1406,1024,928,1684,,,,,
150,16,0m 16s,36.49976836,126.3374105,P-GPS,88.6,27,22.1,9.9,22.3,10,292.2,89.1,36.50056931,126.337392,15,5,97,14.493,0.045,3.641,3.637,3.596,3.619,-8.5,5,-2.3,-20.2,-12.2,171,171,570,1397,1024,922,1684,,,,,
151,16.1,0m 16.1s,36.49976071,126.3374165,P-GPS,89.2,27.2,22,9.8,22.6,10.1,295.1,89.9,36.50056931,126.337392,15,5,97,14.493,0.045,3.641,3.637,3.596,3.619,-8.4,5.1,-2.2,-21.4,-12.3,170.6,170.6,581,1398,1024,932,1684,,,,,
152,16.2,0m 16.2s,36.49975339,126.3374232,P-GPS,89.6,27.3,22,9.9,22.5,10.1,297.8,90.8,36.50056931,126.337392,15,5,97,14.493,0.045,3.641,3.637,3.596,3.619,-8.3,5.3,-2,-21.7,-12.3,169.5,169.5,582,1396,1024,931,1684,,,,,
153,16.3,0m 16.3s,36.49974595,126.3374293,P-GPS,90.2,27.5,21.8,9.8,22.4,10,300.6,91.6,36.50056931,126.337392,15,5,97,14.493,0.045,3.641,3.637,3.596,3.619,-8.2,5.3,-2.1,-21,-11.4,168.4,168.4,587,1389,1024,932,1684,,,,,
154,16.4,0m 16.4s,36.49973889,126.3374366,P-GPS,90.6,27.6,22,9.9,22.4,10,303.2,92.4,36.50056931,126.337392,15,5,97,14.493,0.045,3.641,3.637,3.596,3.619,-8.1,5.6,-1.9,-20.9,-11.5,167.3,167.3,588,1384,1024,931,1684,,,,,
155,16.5,0m 16.5s,36.49973158,126.337443,P-GPS,91.2,27.8,22,9.8,22.5,10.1,306,93.3,36.50056931,126.337392,15,5,97,14.493,0.045,3.641,3.637,3.596,3.619,-8,5.7,-2,-20.5,-11.2,166.4,166.4,607,1371,1024,929,1684,,,,,
156,16.6,0m 16.6s,36.49972468,126.3374504,P-GPS,91.9,28,22.2,9.9,22.4,10,308.6,94.1,36.50056931,126.337392,15,5,97,14.493,0.045,3.641,3.637,3.596,3.619,-8,5.9,-1.9,-21.2,-11.2,166,166,644,1343,1024,1013,1671,,,,,
157,16.7,0m 16.7s,36.4997176,126.3374576,P-GPS,92.2,28.1,22.2,9.9,22.7,10.2,311.3,94.9,36.50056931,126.337392,15,5,97,15.004,0.048,3.758,3.774,3.746,3.726,-7.9,6,-2,-21,-10.4,165.3,165.3,848,1230,1024,1024,1644,,,,,
158,16.8,0m 16.8s,36.49971082,126.3374652,P-GPS,92.8,28.3,22.1,9.9,22.7,10.1,313.9,95.7,36.50056931,126.337392,15,5,97,15.004,0.048,3.758,3.774,3.746,3.726,-7.8,6.1,-1.7,-22.4,-10.4,165.6,165.6,1024,1113,1024,1024,1590,,,,,
159,16.9,0m 16.9s,36.49970379,126.3374721,P-GPS,93.2,28.4,22,9.8,22.5,10.1,316.6,96.5,36.50056931,126.337392,15,5,97,15.004,0.048,3.758,3.774,3.746,3.726,-7.7,6.1,-1.5,-25,-6.9,165.6,165.6,1024,1071,1024,1024,1551,,,,,
160,17,0m 17s,36.4996973,126.3374804,P-GPS,93.5,28.5,21.8,9.8,22.7,10.1,319.2,97.3,36.50056931,126.337392,15,5,97,15.004,0.048,3.758,3.774,3.746,3.726,-7.6,6.1,-1,-26.5,-0.8,165.5,165.5,1024,1049,1024,1024,1554,,,,,
161,17.1,0m 17.1s,36.49969039,126.3374872,P-GPS,93.5,28.5,21.7,9.7,22.5,10.1,321.8,98.1,36.50056931,126.337392,15,5,97,15.004,0.048,3.758,3.774,3.746,3.726,-7.6,6,-0.6,-26.2,1.4,165,165,1024,1024,1024,1024,1576,,,,,
162,17.2,0m 17.2s,36.4996839,126.3374947,P-GPS,93.5,28.5,21.7,9.7,22,9.8,324.4,98.9,36.50056931,126.337392,15,5,97,15.004,0.048,3.758,3.774,3.746,3.726,-7.6,6,-0.3,-24.4,3,164.9,164.9,1024,1024,1024,1024,1583,,,,,
163,17.3,0m 17.3s,36.49967715,126.337502,P-GPS,93.5,28.5,21.7,9.7,22.1,9.9,327.1,99.7,36.50056931,126.337392,15,5,97,15.004,0.048,3.758,3.774,3.746,3.726,-7.7,5.9,-0.3,-22.9,3.5,164.9,164.9,1024,1024,1024,1024,1575,,,,,
164,17.4,0m 17.4s,36.49967044,126.3375091,P-GPS,93.2,28.4,21.9,9.8,22.1,9.9,329.7,100.5,36.50056931,126.337392,15,5,97,15.004,0.048,3.758,3.774,3.746,3.726,-7.8,5.9,-0.3,-22.1,3.5,165,165,1024,1024,1024,1024,1566,,,,,
165,17.5,0m 17.5s,36.49966332,126.3375157,P-GPS,93.2,28.4,21.9,9.8,22,9.8,332.5,101.3,36.50056931,126.337392,15,5,97,15.004,0.048,3.758,3.774,3.746,3.726,-7.9,5.8,-0.2,-21.4,3.6,165.2,165.2,1024,1024,1024,1024,1566,,,,,
166,17.6,0m 17.6s,36.49965684,126.3375232,P-GPS,93.2,28.4,21.9,9.8,22,9.8,335.1,102.1,36.50056931,126.337392,15,5,97,15.004,0.048,3.758,3.774,3.746,3.726,-7.9,5.8,-0.3,-21.1,3.9,165.4,165.4,1024,1024,1024,1024,1572,,,,,
167,17.7,0m 17.7s,36.49964967,126.3375297,P-GPS,93.2,28.4,21.8,9.7,22,9.8,337.9,103,36.50056931,126.337392,15,5,97,14.833,0.053,3.712,3.736,3.702,3.683,-7.9,5.7,-0.2,-21.3,4.1,165.7,165.7,1024,1024,1024,1024,1539,,,,,
168,17.8,0m 17.8s,36.49964302,126.3375361,P-GPS,92.8,28.3,21.8,9.7,21.4,9.6,340.5,103.8,36.50056931,126.337392,15,5,97,14.833,0.053,3.712,3.736,3.702,3.683,-7.9,5.7,-0.2,-21.3,3.6,166,166,1024,1024,1024,1024,1397,,,,,
169,17.9,0m 17.9s,36.49963622,126.3375433,P-GPS,92.8,28.3,21.9,9.8,21.5,9.6,343.3,104.6,36.50056931,126.337392,15,5,97,14.833,0.053,3.712,3.736,3.702,3.683,-8,5.6,-0.1,-20,3.7,166.2,166.2,1024,1024,1024,1024,1290,,,,,
170,18,0m 18s,36.49962964,126.3375496,P-GPS,92.5,28.2,21.5,9.6,21.4,9.6,345.9,105.4,36.50056931,126.337392,15,5,97,14.833,0.053,3.712,3.736,3.702,3.683,-7.8,5.6,-0.1,-16.9,3.5,166.5,166.5,1024,1024,1024,1024,1310,,,,,
171,18.1,0m 18.1s,36.49962252,126.3375558,P-GPS,92.5,28.2,21.5,9.6,21.1,9.4,348.7,106.3,36.50056931,126.337392,15,5,97,14.833,0.053,3.712,3.736,3.702,3.683,-7.9,5.5,-0.2,-12.2,3.7,167.1,167.1,1024,1024,1024,1298,1254,,,,,
172,18.2,0m 18.2s,36.49961662,126.3375624,P-GPS,92.2,28.1,21,9.4,20.6,9.2,351.1,107,36.50056931,126.337392,15,5,97,14.833,0.053,3.712,3.736,3.702,3.683,-7.7,5.4,-0.2,-9.7,3.8,167.3,167.3,1024,1024,1024,1382,1194,,,,,
173,18.3,0m 18.3s,36.49960966,126.3375684,P-GPS,92.2,28.1,20.7,9.3,20.3,9.1,353.9,107.9,36.50056931,126.337392,15,5,97,14.833,0.053,3.712,3.736,3.702,3.683,-7.6,5.3,-0.2,-8.3,3.7,169.4,169.4,1024,1024,1024,1052,1132,,,,,
174,18.4,0m 18.4s,36.49960334,126.3375744,P-GPS,92.2,28.1,20.4,9.1,20.4,9.1,356.4,108.6,36.50056931,126.337392,15,5,97,14.833,0.053,3.712,3.736,3.702,3.683,-7.4,5.3,-0.4,-5.3,3.4,175.2,175.2,1024,1024,1024,1024,1056,,,,,
175,18.5,0m 18.5s,36.49959668,126.3375802,P-GPS,92.2,28.1,19.9,8.9,20,8.9,359.1,109.4,36.50056931,126.337392,15,5,97,14.833,0.053,3.712,3.736,3.702,3.683,-7.3,5.1,-0.3,-3.5,4,178.1,178.1,1024,1024,1024,1024,1024,,,,,
176,18.6,0m 18.6s,36.49959143,126.3375864,P-GPS,91.9,28,19.4,8.7,19.1,8.5,361.3,110.1,36.50056931,126.337392,15,5,97,14.833,0.053,3.712,3.736,3.702,3.683,-7,5.1,-0.2,0,4.6,179.1,179.1,1024,1024,1024,1024,1024,,,,,
177,18.7,0m 18.7s,36.49958511,126.3375921,P-GPS,91.9,28,18.9,8.5,18.6,8.3,363.8,110.9,36.50056931,126.337392,15,5,97,15.124,0.03,3.778,3.797,3.782,3.767,-6.9,4.9,-0.1,2.3,5.4,-179.6,180.4,1024,1024,1024,1024,1024,,,,,
178,18.8,0m 18.8s,36.49957964,126.3375976,P-GPS,91.5,27.9,18.1,8.1,18.5,8.2,366,111.6,36.50056931,126.337392,15,5,97,15.124,0.03,3.778,3.797,3.782,3.767,-6.5,4.8,-0.2,7.3,8.8,-178,182,1024,1024,1024,1024,1024,,,,,
179,18.9,0m 18.9s,36.4995743,126.3376032,P-GPS,91.2,27.8,17.1,7.7,17.4,7.8,368.2,112.2,36.50056931,126.337392,15,5,97,15.124,0.03,3.778,3.797,3.782,3.767,-6.2,4.5,-0.1,12.6,13.4,-176,184,1024,1024,1024,1024,1024,,,,,
180,19,0m 19s,36.49956939,126.3376082,P-GPS,91.2,27.8,16.2,7.2,16.6,7.4,370.2,112.8,36.50056931,126.337392,15,5,97,15.124,0.03,3.778,3.797,3.782,3.767,-5.8,4.3,-0.2,14.5,15.6,-174.5,185.5,1024,1024,1024,1024,1024,,,,,
181,19.1,0m 19.1s,36.49956424,126.337613,P-GPS,90.9,27.7,15.2,6.8,15.9,7.1,372.3,113.5,36.50056931,126.337392,15,5,97,15.124,0.03,3.778,3.797,3.782,3.767,-5.5,4,-0.2,15.2,17.4,-173.4,186.6,1024,1024,1024,1024,1024,,,,,
182,19.2,0m 19.2s,36.49956064,126.337618,P-GPS,90.6,27.6,14.2,6.4,14.6,6.5,373.9,114,36.50056931,126.337392,15,5,97,15.124,0.03,3.778,3.797,3.782,3.767,-5.1,3.8,-0.1,16.3,18.9,-172.2,187.8,1024,1024,1024,1024,1036,,,,,
183,19.3,0m 19.3s,36.49955621,126.3376221,P-GPS,90.6,27.6,13.1,5.9,13.5,6,375.7,114.5,36.50056931,126.337392,15,5,97,15.124,0.03,3.778,3.797,3.782,3.767,-4.7,3.5,-0.1,17.2,19.9,-171.2,188.8,1024,1024,1024,1024,1063,,,,,
184,19.4,0m 19.4s,36.49955302,126.3376261,P-GPS,90.2,27.5,11.9,5.3,12.5,5.6,377,114.9,36.50056931,126.337392,15,5,97,15.124,0.03,3.778,3.797,3.782,3.767,-4.2,3.3,-0.2,17.9,20.7,-170.2,189.8,1024,1024,1024,1024,1051,,,,,
185,19.5,0m 19.5s,36.49954969,126.3376302,P-GPS,90.2,27.5,10.6,4.8,11.5,5.1,378.5,115.4,36.50056931,126.337392,15,5,97,15.124,0.03,3.778,3.797,3.782,3.767,-3.7,3,-0.2,18.6,21.5,-168.8,191.2,1024,1024,1024,1024,1051,,,,,
186,19.6,0m 19.6s,36.49954754,126.3376337,P-GPS,89.9,27.4,10.6,4.8,10.1,4.5,379.4,115.6,36.50056931,126.337392,15,5,97,15.124,0.03,3.778,3.797,3.782,3.767,-3.4,2.9,-0.4,10.6,13.2,-170.3,189.7,1024,1024,1024,1024,1437,,,,,
187,19.7,0m 19.7s,36.49954458,126.337637,P-GPS,89.9,27.4,9.5,4.3,9.3,4.2,380.7,116,36.50056931,126.337392,15,5,97,15.151,0.047,3.792,3.814,3.778,3.767,-3.2,2.8,-0.2,0.3,5.9,-171.9,188.1,1024,1024,1024,1024,1649,,,,,
188,19.8,0m 19.8s,36.49954321,126.3376408,P-GPS,89.6,27.3,9.4,4.2,8.9,4,381.4,116.2,36.50056931,126.337392,15,5,97,15.151,0.047,3.792,3.814,3.778,3.767,-3.1,2.8,-0.1,-9,5.2,-172.4,187.6,1024,1024,1024,1024,1655,,,,,
189,19.9,0m 19.9s,36.49954037,126.337644,P-GPS,89.6,27.3,9.4,4.2,8.8,3.9,382.6,116.6,36.50056931,126.337392,15,5,97,15.151,0.047,3.792,3.814,3.778,3.767,-3.2,2.7,-0.1,-18.2,4.6,-173,187,1024,1024,1024,1024,1584,,,,,
190,20,0m 20s,36.49953874,126.3376471,P-GPS,89.2,27.2,9.2,4.1,8.4,3.7,383.3,116.8,36.50056931,126.337392,15,5,97,15.151,0.047,3.792,3.814,3.778,3.767,-3.1,2.7,0,-23.1,4.3,-173.5,186.5,1024,1024,364,1024,1365,,,,,
191,20.2,0m 20.2s,36.49953409,126.3376534,P-GPS,88.9,27.1,9.3,4.2,8.2,3.6,385.3,117.5,36.50056931,126.337392,15,5,97,15.151,0.047,3.792,3.814,3.778,3.767,-3.4,2.4,0,-22,4.4,-174.2,185.8,1024,1024,364,1024,1365,,,,,
192,20.3,0m 20.3s,36.49953087,126.3376561,P-GPS,88.9,27.1,9.6,4.3,8.9,4,386.7,117.9,36.50056931,126.337392,15,5,97,15.151,0.047,3.792,3.814,3.778,3.767,-3.6,2.3,0,-18.2,3.7,-174,186,1024,1024,364,1024,1231,,,,,
193,20.4,0m 20.4s,36.49952913,126.3376588,P-GPS,88.6,27,9.2,4.1,8.2,3.7,387.4,118.1,36.50056931,126.337392,15,5,97,15.151,0.047,3.792,3.814,3.778,3.767,-3.5,2.2,-0.1,-13.8,4.1,-173.8,186.2,1024,1024,364,1024,1231,,,,,
194,20.5,0m 20.5s,36.49952585,126.3376613,P-GPS,88.6,27,9.3,4.2,8.1,3.6,388.8,118.5,36.50056931,126.337392,15,5,97,15.151,0.047,3.792,3.814,3.778,3.767,-3.6,2.1,-0.2,-9.3,3.7,-173.6,186.4,1024,1024,364,1024,1236,,,,,
195,20.6,0m 20.6s,36.49952293,126.3376634,P-GPS,88.3,26.9,8.8,3.9,8.9,4,389.9,118.8,36.50056931,126.337392,15,5,97,15.151,0.047,3.792,3.814,3.778,3.767,-3.4,2,-0.1,-6.5,3.7,-173.5,186.5,1024,1024,364,1024,1227,,,,,
196,20.7,0m 20.7s,36.49952084,126.3376658,P-GPS,88.3,26.9,8.8,3.9,7.7,3.4,390.8,119.1,36.50056931,126.337392,15,5,96,15.596,0.043,3.901,3.922,3.894,3.879,-3.4,2,-0.2,-6.3,3.3,-173.4,186.6,1024,1024,364,1024,1225,,,,,
197,20.8,0m 20.8s,36.49951801,126.3376676,P-GPS,88.3,26.9,8.5,3.8,7.4,3.3,391.9,119.5,36.50056931,126.337392,15,5,96,15.596,0.043,3.901,3.922,3.894,3.879,-3.3,1.9,-0.2,-6.2,2.9,-173.3,186.7,1024,1024,364,1024,1225,,,,,
198,20.9,0m 20.9s,36.49951495,126.3376698,P-GPS,87.9,26.8,8.4,3.8,8.4,3.7,393.2,119.8,36.50056931,126.337392,15,5,96,15.596,0.043,3.901,3.922,3.894,3.879,-3.3,1.8,-0.2,-6.8,3.2,-173.2,186.8,1024,1024,364,1024,1217,,,,,
199,21,0m 21s,36.49951263,126.3376714,P-GPS,87.9,26.8,8.3,3.7,7.6,3.4,394.1,120.1,36.50056931,126.337392,15,5,96,15.596,0.043,3.901,3.922,3.894,3.879,-3.3,1.7,-0.3,-7.3,3.4,-173.2,186.8,1024,1024,364,1024,1199,,,,,
200,21.1,0m 21.1s,36.49950964,126.3376733,P-GPS,87.9,26.8,8.3,3.7,7.5,3.4,395.3,120.5,36.50056931,126.337392,15,5,96,15.596,0.043,3.901,3.922,3.894,3.879,-3.3,1.6,-0.2,-7.8,3.2,-173.3,186.7,1024,1024,364,1024,1199,,,,,
201,21.2,0m 21.2s,36.49950686,126.337675,P-GPS,87.9,26.8,8,3.6,8.1,3.6,396.4,120.8,36.50056931,126.337392,15,5,96,15.596,0.043,3.901,3.922,3.894,3.879,-3.2,1.6,-0.2,-8.1,3.1,-173.3,186.7,1024,1024,1024,1024,1138,,,,,
202,21.3,0m 21.3s,36.49950422,126.3376766,P-GPS,87.9,26.8,7.9,3.5,7.5,3.4,397.4,121.1,36.50056931,126.337392,15,5,96,15.596,0.043,3.901,3.922,3.894,3.879,-3.2,1.5,-0.2,-6.9,3.1,-173.4,186.6,1024,1024,939,1024,1141,,,,,
203,21.4,0m 21.4s,36.49950142,126.3376781,P-GPS,87.9,26.8,7.6,3.4,7.4,3.3,398.5,121.5,36.50056931,126.337392,15,5,96,15.596,0.043,3.901,3.922,3.894,3.879,-3.1,1.4,-0.3,-4.7,2.8,-173.1,186.9,1024,1024,663,1024,1143,,,,,
204,21.5,0m 21.5s,36.49949857,126.3376798,P-GPS,87.6,26.7,7.6,3.4,7.7,3.4,399.6,121.8,36.50056931,126.337392,15,5,96,15.596,0.043,3.901,3.922,3.894,3.879,-3.1,1.4,-0.3,-3.9,2.6,-173.1,186.9,1024,1024,569,1024,1143,,,,,
205,21.6,0m 21.6s,36.49949601,126.3376813,P-GPS,87.6,26.7,7.4,3.3,7.4,3.3,400.6,122.1,36.50056931,126.337392,16,5,96,15.596,0.043,3.901,3.922,3.894,3.879,-3,1.4,-0.3,-3.8,3.1,-173.1,186.9,1024,1024,644,1024,1144,,,,,
206,21.7,0m 21.7s,36.49949345,126.3376828,P-GPS,87.6,26.7,7.1,3.2,7,3.1,401.6,122.4,36.50056931,126.337392,16,5,96,15.227,0.037,3.829,3.803,3.792,3.803,-2.9,1.3,-0.4,-3.6,2.9,-173.1,186.9,1024,1024,1024,1024,1305,,,,,
207,21.8,0m 21.8s,36.49949085,126.3376842,P-GPS,87.6,26.7,6.8,3.1,7,3.1,402.6,122.7,36.50056931,126.337392,16,5,96,15.227,0.037,3.829,3.803,3.792,3.803,-2.8,1.2,-0.3,-4.4,2.7,-173.1,186.9,1024,1058,1024,1024,1440,,,,,
208,21.9,0m 21.9s,36.49948826,126.3376856,P-GPS,87.6,26.7,7,3.1,7,3.1,403.7,123,36.50056931,126.337392,16,5,96,15.227,0.037,3.829,3.803,3.792,3.803,-2.9,1.2,-0.3,-7.2,2.8,-173.3,186.7,1024,1361,1024,1024,1379,,,,,
209,22,0m 22s,36.49948601,126.3376869,P-GPS,87.6,26.7,6.9,3.1,6.5,2.9,404.5,123.3,36.50056931,126.337392,16,5,96,15.227,0.037,3.829,3.803,3.792,3.803,-2.9,1.1,-0.3,-15.2,2.6,-173.8,186.2,1024,1440,1024,1024,1322,,,,,
210,22.1,0m 22.1s,36.49948329,126.3376882,P-GPS,87.6,26.7,7.2,3.2,6.7,3,405.6,123.6,36.50056931,126.337392,16,5,96,15.227,0.037,3.829,3.803,3.792,3.803,-3,1.1,-0.3,-19.7,2.3,-173.7,186.3,1024,1400,1684,1024,1300,,,,,
211,22.2,0m 22.2s,36.49948057,126.3376895,P-GPS,87.9,26.8,7.6,3.4,7.2,3.2,406.6,123.9,36.50056931,126.337392,16,5,96,15.227,0.037,3.829,3.803,3.792,3.803,-3.2,1.1,-0.8,-17.1,2.6,-173.6,186.4,1024,1400,1684,1024,1300,,,,,
212,22.3,0m 22.3s,36.49947765,126.3376907,P-GPS,88.3,26.9,7.9,3.5,7.5,3.4,407.8,124.3,36.50056931,126.337392,16,5,96,15.227,0.037,3.829,3.803,3.792,3.803,-3.4,1,-1.2,-14,2.4,-173.4,186.6,1024,1391,1684,1024,1301,,,,,
213,22.4,0m 22.4s,36.4994747,126.337692,P-GPS,88.9,27.1,7.9,3.5,7.7,3.5,408.9,124.6,36.50056931,126.337392,16,5,96,15.227,0.037,3.829,3.803,3.792,3.803,-3.4,0.9,-1.6,-12.3,2.2,-173.4,186.6,1024,1386,1684,1024,1287,,,,,
214,22.5,0m 22.5s,36.49947154,126.3376931,P-GPS,89.2,27.2,8.1,3.6,7.9,3.6,410.1,125,36.50056931,126.337392,16,5,96,15.227,0.037,3.829,3.803,3.792,3.803,-3.5,0.9,-1.4,-13.1,2.4,-173.3,186.7,1024,1387,1684,1024,1289,,,,,
215,22.6,0m 22.6s,36.49946859,126.337694,P-GPS,89.6,27.3,7.8,3.5,7.9,3.6,411.2,125.3,36.50056931,126.337392,16,5,96,15.227,0.037,3.829,3.803,3.792,3.803,-3.4,0.8,-1.5,-13.3,2.7,-173.3,186.7,1024,1389,1024,1024,1270,,,,,
216,22.7,0m 22.7s,36.49946542,126.3376949,P-GPS,90.2,27.5,8,3.6,7.8,3.5,412.4,125.7,36.50056931,126.337392,16,5,96,15.273,0.029,3.822,3.836,3.808,3.807,-3.5,0.8,-1.8,-13.2,2.5,-173.4,186.6,1024,1386,1024,1024,1275,,,,,
217,22.8,0m 22.8s,36.49946216,126.3376958,P-GPS,90.9,27.7,8,3.6,8.2,3.7,413.6,126.1,36.50056931,126.337392,16,5,96,15.273,0.029,3.822,3.836,3.808,3.807,-3.5,0.7,-1.7,-13.3,2.5,-173.4,186.6,1024,1387,1024,1024,1273,,,,,
218,22.9,0m 22.9s,36.49945932,126.3376965,P-GPS,91.2,27.8,8.2,3.7,7.8,3.5,414.6,126.4,36.50056931,126.337392,16,5,96,15.273,0.029,3.822,3.836,3.808,3.807,-3.6,0.6,-1.7,-13.5,2.2,-173.4,186.6,1024,1390,1684,1024,1274,,,,,
219,23,0m 23s,36.49945598,126.3376974,P-GPS,91.9,28,8.2,3.7,7.8,3.5,415.9,126.8,36.50056931,126.337392,16,5,96,15.273,0.029,3.822,3.836,3.808,3.807,-3.6,0.6,-1.7,-13.6,2.1,-173.5,186.5,1024,1382,1024,1024,1243,,,,,
220,23.2,0m 23.2s,36.49944954,126.3376985,P-GPS,92.8,28.3,8.2,3.7,8.2,3.7,418.3,127.5,36.50056931,126.337392,16,5,96,15.273,0.029,3.822,3.836,3.808,3.807,-3.6,0.5,-1.8,-13.3,1.6,-173.4,186.6,1024,1366,1024,685,1118,,,,,
221,23.3,0m 23.3s,36.49944619,126.3376991,P-GPS,93.5,28.5,8.3,3.7,8.2,3.7,419.5,127.9,36.50056931,126.337392,16,5,96,15.273,0.029,3.822,3.836,3.808,3.807,-3.7,0.4,-1.9,-13,1.8,-173.5,186.5,1024,1319,1024,454,965,,,,,
222,23.4,0m 23.4s,36.49944266,126.3376998,P-GPS,94.2,28.7,8.3,3.7,8.6,3.9,420.8,128.3,36.50056931,126.337392,16,5,96,15.273,0.029,3.822,3.836,3.808,3.807,-3.7,0.4,-1.7,-11.4,1.9,-174.2,185.8,1024,1278,1024,380,880,,,,,
223,23.5,0m 23.5s,36.49943947,126.3377002,P-GPS,94.5,28.8,8.1,3.6,8.4,3.7,422,128.6,36.50056931,126.337392,16,5,96,15.273,0.029,3.822,3.836,3.808,3.807,-3.6,0.3,-1.6,-6.1,2.4,179.4,179.4,1024,1243,1024,364,849,,,,,
224,23.6,0m 23.6s,36.49943601,126.3377008,P-GPS,94.8,28.9,7.9,3.5,8.4,3.7,423.2,129,36.50056931,126.337392,16,5,96,15.273,0.029,3.822,3.836,3.808,3.807,-3.5,0.3,-1.5,-0.8,2.3,168.1,168.1,1024,1231,1024,364,873,,,,,
225,23.7,0m 23.7s,36.49943284,126.3377012,P-GPS,95.1,29,7.6,3.4,8.4,3.7,424.4,129.4,36.50056931,126.337392,16,5,96,15.048,0.124,3.823,3.824,3.7,3.701,-3.4,0.3,-1.4,4.2,1.3,154.9,154.9,1024,1213,1024,364,892,,,,,
226,23.8,0m 23.8s,36.49942972,126.3377018,P-GPS,95.5,29.1,7.2,3.2,7.9,3.6,425.5,129.7,36.50056931,126.337392,16,5,96,15.048,0.124,3.823,3.824,3.7,3.701,-3.2,0.3,-1.2,6.4,0.3,141.3,141.3,1024,1213,1024,364,892,,,,,
227,23.9,0m 23.9s,36.49942684,126.3377021,P-GPS,95.8,29.2,6.7,3,7.6,3.4,426.6,130,36.50056931,126.337392,16,5,96,15.048,0.124,3.823,3.824,3.7,3.701,-3,0.2,-1,7.1,-0.4,127.4,127.4,1024,1134,1024,1006,1024,,,,,
228,24,0m 24s,36.49942412,126.3377026,P-GPS,96.1,29.3,6.5,2.9,7,3.1,427.6,130.3,36.50056931,126.337392,16,5,96,15.048,0.124,3.823,3.824,3.7,3.701,-2.9,0.2,-1,4.8,-0.8,114.2,114.2,1024,1112,1024,1024,1024,,,,,
229,24.1,0m 24.1s,36.49942141,126.3377029,P-GPS,96.5,29.4,6.3,2.8,6.8,3,428.6,130.6,36.50056931,126.337392,16,5,96,15.048,0.124,3.823,3.824,3.7,3.701,-2.8,0.1,-0.9,0.2,-1.2,108.4,108.4,1024,1072,1024,1024,1024,,,,,
230,24.2,0m 24.2s,36.49941898,126.3377034,P-GPS,96.5,29.4,6.1,2.7,6.5,2.9,429.5,130.9,36.50056931,126.337392,16,5,96,15.048,0.124,3.823,3.824,3.7,3.701,-2.7,0.2,-0.6,-1.1,-2.8,107.3,107.3,1024,1072,1024,1024,1024,,,,,
231,24.3,0m 24.3s,36.4994166,126.3377037,P-GPS,96.8,29.5,5.6,2.5,6,2.7,430.3,131.2,36.50056931,126.337392,16,5,96,15.048,0.124,3.823,3.824,3.7,3.701,-2.5,0.2,-0.5,-0.3,-6.1,106.4,106.4,1024,1052,1024,1024,1024,,,,,
232,24.4,0m 24.4s,36.49941446,126.3377045,P-GPS,96.8,29.5,5.2,2.3,5.8,2.6,431.1,131.4,36.50056931,126.337392,15,5,96,15.048,0.124,3.823,3.824,3.7,3.701,-2.3,0.3,-0.3,1,-9.3,105.8,105.8,1024,1038,1024,1024,1024,,,,,
233,24.5,0m 24.5s,36.49941251,126.3377049,P-GPS,96.8,29.5,4.5,2,5.2,2.3,431.9,131.6,36.50056931,126.337392,15,5,96,15.048,0.124,3.823,3.824,3.7,3.701,-2,0.3,-0.3,2.5,-12.4,105.2,105.2,1024,1030,1024,1024,1024,,,,,
234,24.6,0m 24.6s,36.49941111,126.3377057,P-GPS,96.8,29.5,3.9,1.8,4.2,1.9,432.4,131.8,36.50056931,126.337392,15,5,96,15.048,0.124,3.823,3.824,3.7,3.701,-1.7,0.4,-0.2,3.9,-14.5,104.9,104.9,1024,1024,1024,1024,1024,,,,,
235,24.7,0m 24.7s,36.49940969,126.3377062,P-GPS,96.8,29.5,3.2,1.4,3.7,1.6,432.9,132,36.50056931,126.337392,15,5,96,14.908,0.038,3.746,3.743,3.711,3.708,-1.4,0.3,-0.2,5.7,-15.7,104.2,104.2,1024,1024,1024,717,1019,,,,,
236,24.8,0m 24.8s,36.4994089,126.3377074,P-GPS,96.8,29.5,2.6,1.2,3.4,1.5,433.3,132.1,36.50056931,126.337392,15,5,96,14.908,0.038,3.746,3.743,3.711,3.708,-1.1,0.4,-0.1,7.5,-15.4,103.5,103.5,1024,1024,1024,502,965,,,,,
237,24.9,0m 24.9s,36.49940807,126.3377079,P-GPS,96.8,29.5,1.7,0.8,2.6,1.2,433.6,132.2,36.50056931,126.337392,15,5,96,14.908,0.038,3.746,3.743,3.711,3.708,-0.7,0.3,0,6.5,-13.1,99.6,99.6,1024,1024,1024,468,942,,,,,
238,25,0m 25s,36.49940808,126.3377086,P-GPS,96.8,29.5,1.5,0.7,1.5,0.7,433.7,132.2,36.50056931,126.337392,15,5,96,14.908,0.038,3.746,3.743,3.711,3.708,-0.6,0.3,-0.1,3.3,-4.1,91.8,91.8,1024,1024,1024,484,950,,,,,
239,25.1,0m 25.1s,36.49940746,126.3377094,P-GPS,96.8,29.5,1.1,0.5,1.5,0.7,433.9,132.3,36.50056931,126.337392,15,5,96,14.908,0.038,3.746,3.743,3.711,3.708,-0.4,0.3,0,0.2,1.8,82.2,82.2,1024,1024,1024,485,948,,,,,
240,25.2,0m 25.2s,36.49940783,126.3377102,P-GPS,96.8,29.5,1.1,0.5,2.1,0.9,433.9,132.2,36.50056931,126.337392,15,5,96,14.908,0.038,3.746,3.743,3.711,3.708,-0.4,0.5,0,-1.3,2.3,71.6,71.6,1024,1024,1024,497,946,,,,,
241,25.3,0m 25.3s,36.49940751,126.3377108,P-GPS,96.8,29.5,1.3,0.6,1.5,0.7,434,132.3,36.50056931,126.337392,15,5,96,14.908,0.038,3.746,3.743,3.711,3.708,-0.3,0.5,0,-1,2.3,60.6,60.6,1024,1024,1024,692,1002,,,,,
242,25.4,0m 25.4s,36.49940796,126.3377126,P-GPS,96.8,29.5,1.6,0.7,2.4,1.1,434,132.3,36.50056931,126.337392,16,5,96,14.908,0.038,3.746,3.743,3.711,3.708,-0.1,0.7,0,-0.6,1,50,50,1024,1024,1024,1024,1024,,,,,
243,25.5,0m 25.5s,36.49940787,126.3377135,P-GPS,96.8,29.5,1.6,0.7,2.6,1.2,434,132.3,36.50056931,126.337392,16,5,96,14.908,0.038,3.746,3.743,3.711,3.708,0,0.7,0.1,-3.1,0.3,43.1,43.1,1024,1024,1024,1024,1024,,,,,
244,25.6,0m 25.6s,36.49940862,126.3377144,P-GPS,96.8,29.5,1.8,0.8,1.8,0.8,433.8,132.2,36.50056931,126.337392,16,5,96,14.908,0.038,3.746,3.743,3.711,3.708,0.2,0.8,0,-3.9,0,41.4,41.4,1024,1024,1024,1024,1024,,,,,
245,25.7,0m 25.7s,36.49940913,126.3377161,P-GPS,96.8,29.5,1.9,0.9,3,1.3,433.8,132.2,36.50056931,126.337392,16,5,96,15.38,0.024,3.844,3.861,3.838,3.837,0.3,0.8,0,-2.7,-0.3,40.1,40.1,1024,1024,1024,1024,1024,,,,,
246,25.8,0m 25.8s,36.49940988,126.3377172,P-GPS,96.5,29.4,2.2,1,2.8,1.3,433.6,132.2,36.50056931,126.337392,16,5,96,15.38,0.024,3.844,3.861,3.838,3.837,0.4,0.9,0.1,-0.5,-0.7,39.3,39.3,1024,1024,1024,1024,1024,,,,,
247,25.9,0m 25.9s,36.49941037,126.3377182,P-GPS,96.5,29.4,2.1,0.9,2.6,1.2,433.5,132.1,36.50056931,126.337392,16,5,96,15.38,0.024,3.844,3.861,3.838,3.837,0.5,0.8,0.1,1.9,-1.2,38.7,38.7,1024,1024,1024,846,1019,,,,,
248,26,0m 26s,36.49941191,126.3377195,P-GPS,96.5,29.4,2.2,1,3.4,1.5,433,132,36.50056931,126.337392,16,5,96,15.38,0.024,3.844,3.861,3.838,3.837,0.6,0.8,0,4.1,-1.8,38.3,38.3,1024,1024,1024,572,977,,,,,
249,26.1,0m 26.1s,36.49941253,126.3377204,P-GPS,96.5,29.4,2.1,0.9,3.7,1.6,432.8,131.9,36.50056931,126.337392,16,5,96,15.38,0.024,3.844,3.861,3.838,3.837,0.6,0.7,0,5.9,-2.5,35.7,35.7,1024,1024,1024,483,983,,,,,
250,26.2,0m 26.2s,36.49941363,126.3377213,P-GPS,96.5,29.4,2.4,1.1,2.8,1.3,432.5,131.8,36.50056931,126.337392,16,5,96,15.38,0.024,3.844,3.861,3.838,3.837,0.8,0.7,0,4.2,-2.7,28.3,28.3,1024,1024,1024,444,962,,,,,
251,26.3,0m 26.3s,36.49941457,126.3377221,P-GPS,96.5,29.4,2.2,1,3,1.3,432.2,131.7,36.50056931,126.337392,16,5,96,15.38,0.024,3.844,3.861,3.838,3.837,0.8,0.6,0,0.5,-1.7,18.5,18.5,1024,1024,1024,490,976,,,,,
252,26.4,0m 26.4s,36.49941577,126.337723,P-GPS,96.5,29.4,2.6,1.1,3.4,1.5,431.9,131.6,36.50056931,126.337392,16,5,96,15.38,0.024,3.844,3.861,3.838,3.837,0.9,0.7,0,0,-1.3,7.3,7.3,1024,1024,1024,495,983,,,,,
253,26.5,0m 26.5s,36.49941667,126.3377238,P-GPS,96.5,29.4,2.7,1.2,3.4,1.5,431.6,131.5,36.50056931,126.337392,16,5,96,15.38,0.024,3.844,3.861,3.838,3.837,1,0.7,0,-0.4,-1.3,-3.2,356.8,1024,1024,1024,689,1019,,,,,
254,26.6,0m 26.6s,36.49941841,126.3377246,P-GPS,96.1,29.3,2.9,1.3,3.7,1.6,431,131.4,36.50056931,126.337392,16,5,96,15.38,0.024,3.844,3.861,3.838,3.837,1.1,0.7,0,-1,-1.8,-13,347,1024,1024,1024,858,1024,,,,,
255,26.7,0m 26.7s,36.49941952,126.3377254,P-GPS,96.1,29.3,3,1.3,4,1.8,430.7,131.3,36.50056931,126.337392,16,5,96,15.249,0.07,3.822,3.849,3.799,3.779,1.2,0.6,0,-1.2,-2.5,-18.7,341.3,1024,1024,1024,923,1024,,,,,
256,26.8,0m 26.8s,36.49942113,126.3377261,P-GPS,96.1,29.3,3,1.3,3.7,1.6,430.2,131.1,36.50056931,126.337392,16,5,96,15.249,0.07,3.822,3.849,3.799,3.779,1.3,0.6,0,-0.4,-3.6,-21.6,338.4,1024,1024,1024,866,1024,,,,,
257,26.9,0m 26.9s,36.49942272,126.3377269,P-GPS,96.1,29.3,3.3,1.5,4.4,2,429.6,131,36.50056931,126.337392,16,5,96,15.249,0.07,3.822,3.849,3.799,3.779,1.4,0.5,0,0.5,-5.6,-23,337,1024,1024,1024,745,1018,,,,,
258,27,0m 27s,36.49942449,126.3377274,P-GPS,96.1,29.3,3.3,1.5,4.2,1.9,429,130.8,36.50056931,126.337392,16,5,96,15.249,0.07,3.822,3.849,3.799,3.779,1.4,0.5,0,1.9,-7.6,-24.8,335.2,1024,1024,1024,745,1020,,,,,
259,27.1,0m 27.1s,36.49942584,126.3377279,P-GPS,96.5,29.4,3.3,1.5,4.1,1.8,428.6,130.6,36.50056931,126.337392,16,5,96,15.249,0.07,3.822,3.849,3.799,3.779,1.4,0.4,-0.1,3.1,-9.3,-28,332,1024,1024,1024,730,1024,,,,,
260,27.2,0m 27.2s,36.49942781,126.3377282,P-GPS,96.5,29.4,3.2,1.4,4.2,1.9,427.9,130.4,36.50056931,126.337392,16,5,96,15.249,0.07,3.822,3.849,3.799,3.779,1.4,0.3,0,4.7,-10.8,-31.7,328.3,1024,1024,1024,730,1024,,,,,
261,27.3,0m 27.3s,36.49942911,126.3377285,P-GPS,96.5,29.4,3,1.3,4.2,1.9,427.5,130.3,36.50056931,126.337392,16,5,96,15.249,0.07,3.822,3.849,3.799,3.779,1.3,0.2,0,5.8,-11.9,-35.8,324.2,1024,1024,1024,728,1024,,,,,
262,27.4,0m 27.4s,36.49943074,126.3377285,P-GPS,96.5,29.4,2.9,1.3,3.7,1.6,426.9,130.1,36.50056931,126.337392,16,5,96,15.249,0.07,3.822,3.849,3.799,3.779,1.3,0.1,0,6.3,-13.2,-39.9,320.1,1024,1024,1024,700,1024,,,,,
263,27.5,0m 27.5s,36.49943221,126.3377286,P-GPS,96.1,29.3,2.7,1.2,3.8,1.7,426.4,130,36.50056931,126.337392,16,5,96,15.249,0.07,3.822,3.849,3.799,3.779,1.2,0,0,5.8,-13.8,-44.1,315.9,1024,1024,1024,656,1024,,,,,
264,27.6,0m 27.6s,36.49943353,126.3377283,P-GPS,96.1,29.3,2.5,1.1,3.4,1.5,425.9,129.8,36.50056931,126.337392,16,5,96,15.249,0.07,3.822,3.849,3.799,3.779,1.1,0,0,4.8,-13.3,-48.8,311.2,1024,1024,1024,664,1024,,,,,
265,27.7,0m 27.7s,36.4994345,126.3377283,P-GPS,96.1,29.3,2.2,1,3,1.3,425.6,129.7,36.50056931,126.337392,16,5,96,15.1,0.039,3.786,3.794,3.765,3.755,1,0,0,3.5,-12.8,-54.1,305.9,1024,1024,1024,834,1024,,,,,
266,27.8,0m 27.8s,36.49943556,126.3377279,P-GPS,96.1,29.3,2,0.9,2.6,1.2,425.2,129.6,36.50056931,126.337392,16,5,96,15.1,0.039,3.786,3.794,3.765,3.755,0.9,-0.1,0,2.5,-12.6,-59.7,300.3,1024,1024,1024,1024,1024,,,,,
267,27.9,0m 27.9s,36.49943674,126.3377277,P-GPS,96.1,29.3,1.8,0.8,3,1.3,424.7,129.5,36.50056931,126.337392,16,5,96,15.1,0.039,3.786,3.794,3.765,3.755,0.8,-0.1,0,2,-12,-63.5,296.5,1024,1024,1024,940,1024,,,,,
268,28,0m 28s,36.49943764,126.3377271,P-GPS,96.1,29.3,1.8,0.8,2.6,1.2,424.4,129.3,36.50056931,126.337392,16,5,96,15.1,0.039,3.786,3.794,3.765,3.755,0.8,-0.1,0,1.8,-11.8,-64.3,295.7,1024,1024,1024,1024,1024,,,,,
269,28.1,0m 28.1s,36.49943836,126.3377268,P-GPS,96.1,29.3,1.6,0.7,2.4,1.1,424.1,129.3,36.50056931,126.337392,16,5,96,15.1,0.039,3.786,3.794,3.765,3.755,0.7,-0.1,0,1,-11.5,-65.2,294.8,1024,1024,1024,830,1024,,,,,
270,28.4,0m 28.4s,36.49944049,126.3377254,P-GPS,96.1,29.3,1.4,0.6,2.1,0.9,423.2,129,36.50056931,126.337392,16,5,96,15.1,0.039,3.786,3.794,3.765,3.755,0.6,-0.2,0,1.1,-10.3,-66.1,293.9,1024,1024,1024,717,1022,,,,,
271,28.5,0m 28.5s,36.49944125,126.3377248,P-GPS,96.1,29.3,1.2,0.5,2.1,0.9,422.9,128.9,36.50056931,126.337392,16,5,96,15.1,0.039,3.786,3.794,3.765,3.755,0.5,-0.2,0,1.1,-9.5,-67.7,292.3,1024,1024,1024,1024,1024,,,,,
272,28.7,0m 28.7s,36.49944202,126.3377239,P-GPS,96.1,29.3,1,0.5,1.7,0.8,422.6,128.8,36.50056931,126.337392,16,5,96,15.016,0.038,3.764,3.769,3.752,3.731,0.4,-0.2,-0.1,0,-8.6,-75.1,284.9,1024,1024,1024,1024,1024,,,,,
273,28.8,0m 28.8s,36.49944229,126.3377232,P-GPS,96.1,29.3,1,0.5,1.4,0.6,422.4,128.8,36.50056931,126.337392,16,5,96,15.016,0.038,3.764,3.769,3.752,3.731,0.4,-0.3,0,0.7,-8.5,-76.2,283.8,1024,1024,1504,1024,1024,,,,,
274,28.9,0m 28.9s,36.49944268,126.3377229,P-GPS,96.1,29.3,1,0.5,1.5,0.7,422.3,128.7,36.50056931,126.337392,16,5,96,15.016,0.038,3.764,3.769,3.752,3.731,0.4,-0.2,0,0,-8.6,-76.4,283.6,1024,1024,1655,1019,1024,,,,,
275,29,0m 29s,36.49944292,126.3377225,P-GPS,96.1,29.3,0.8,0.4,1.5,0.7,422.2,128.7,36.50056931,126.337392,16,5,96,15.016,0.038,3.764,3.769,3.752,3.731,0.3,-0.2,0,-0.2,-8.1,-76.4,283.6,1024,1024,1024,1022,1024,,,,,
276,29.1,0m 29.1s,36.49944325,126.3377219,P-GPS,96.1,29.3,0.8,0.4,1.5,0.7,422,128.6,36.50056931,126.337392,16,5,96,15.016,0.038,3.764,3.769,3.752,3.731,0.3,-0.2,-0.1,-0.4,-8.2,-76.4,283.6,1024,1024,1024,819,1010,,,,,
277,29.2,0m 29.2s,36.49944347,126.3377216,P-GPS,96.1,29.3,0.9,0.4,1.5,0.7,421.9,128.6,36.50056931,126.337392,16,5,96,15.016,0.038,3.764,3.769,3.752,3.731,0.3,-0.3,0,-0.9,-7.8,-76.5,283.5,1024,1024,1024,590,923,,,,,
278,29.3,0m 29.3s,36.49944377,126.3377213,P-GPS,96.1,29.3,0.8,0.4,1.5,0.7,421.8,128.6,36.50056931,126.337392,16,5,96,15.016,0.038,3.764,3.769,3.752,3.731,0.3,-0.2,0,-1.2,-7.4,-78,282,1024,1024,1024,682,983,,,,,
